[
    {
        "live": "西区",
        "latitude": 35.9252626,
        "longitude": 139.5790347,
        "address": "〒331-0078 埼玉県さいたま市西区西大宮３丁目４−２"
    },
    {
        "live": "北区",
        "latitude": 35.9308582,
        "longitude": 139.6189302,
        "address": "〒331-8586 埼玉県さいたま市北区宮原町１丁目８５２−１"
    },
    {
        "live": "大宮区",
        "latitude": 35.9017341,
        "longitude": 139.6301336,
        "address": "〒330-8501 埼玉県さいたま市大宮区吉敷町１丁目124番地1"
    },
    {
        "live": "見沼区",
        "latitude": 35.9350613,
        "longitude": 139.6540568,
        "address": "〒337-8586 埼玉県さいたま市見沼区堀崎町１２−３６"
    },
    {
        "live": "中央区",
        "latitude": 35.883966,
        "longitude": 139.625392,
        "address": "〒338-8686 埼玉県さいたま市中央区下落合５丁目７−１０"
    },
    {
        "live": "桜区",
        "latitude": 35.8563132,
        "longitude": 139.6085203,
        "address": "〒338-0835 埼玉県さいたま市桜区道場４丁目３−１"
    },
    {
        "live": "浦和区",
        "latitude": 35.8619462,
        "longitude": 139.6441412,
        "address": "〒330-0061 埼玉県さいたま市浦和区常盤６丁目４−４"
    },
    {
        "live": "南区",
        "latitude": 35.8450947,
        "longitude": 139.6449571,
        "address": "〒336-0021 埼玉県さいたま市南区別所７丁目２０−１"
    },
    {
        "live": "緑区",
        "latitude": 35.8710145,
        "longitude": 139.6840535,
        "address": "〒336-8587 埼玉県さいたま市緑区中尾９７５−１"
    },
    {
        "live": "岩槻区",
        "latitude": 35.9498703,
        "longitude": 139.6941577,
        "address": "〒339-0057 埼玉県さいたま市岩槻区本町３丁目２−５ ワッツ東館3・4階"
    }
]
