[
    {
        "name": "さいたま市立浦和高等学校",
        "latitude": 35.8714597,
        "longitude": 139.6573108,
        "address": "浦和区元町1丁目28-17",
        "type": "高等学校"
    },
    {
        "name": "さいたま市立浦和南高等学校",
        "latitude": 35.8325269,
        "longitude": 139.6572125,
        "address": "南区辻6丁目5-31",
        "type": "高等学校"
    },
    {
        "name": "さいたま市立大宮北高等学校",
        "latitude": 35.9458794,
        "longitude": 139.6002306,
        "address": "北区奈良町91-1",
        "type": "高等学校"
    },
    {
        "name": "さいたま市立大宮西高等学校",
        "latitude": 35.8964067,
        "longitude": 139.59862,
        "address": "大宮区三橋4丁目96",
        "type": "高等学校"
    },
    {
        "name": "さいたま市立岸中学校",
        "latitude": 35.8503604,
        "longitude": 139.6649566,
        "address": "南区南本町2丁目25-27",
        "type": "中学校"
    },
    {
        "name": "さいたま市立常盤中学校",
        "latitude": 35.8782,
        "longitude": 139.6393677,
        "address": "浦和区針ヶ谷4丁目1-9",
        "type": "中学校"
    },
    {
        "name": "さいたま市立木崎中学校",
        "latitude": 35.8787747,
        "longitude": 139.6615672,
        "address": "浦和区瀬ヶ崎2丁目17-1",
        "type": "中学校"
    },
    {
        "name": "さいたま市立原山中学校",
        "latitude": 35.8663078,
        "longitude": 139.6669107,
        "address": "緑区太田窪1丁目10-22",
        "type": "中学校"
    },
    {
        "name": "さいたま市立本太中学校",
        "latitude": 35.8733928,
        "longitude": 139.6584833,
        "address": "浦和区領家1丁目4-15",
        "type": "中学校"
    },
    {
        "name": "さいたま市立東浦和中学校",
        "latitude": 35.8745072,
        "longitude": 139.6841698,
        "address": "緑区中尾1207-1",
        "type": "中学校"
    },
    {
        "name": "さいたま市立南浦和中学校",
        "latitude": 35.8348572,
        "longitude": 139.6571645,
        "address": "南区辻6丁目1-33",
        "type": "中学校"
    },
    {
        "name": "さいたま市立白幡中学校",
        "latitude": 35.8484502,
        "longitude": 139.6526509,
        "address": "南区白幡2丁目18-13",
        "type": "中学校"
    },
    {
        "name": "さいたま市立大原中学校",
        "latitude": 35.8928799,
        "longitude": 139.6482095,
        "address": "浦和区大原3丁目1-11",
        "type": "中学校"
    },
    {
        "name": "さいたま市立土合中学校",
        "latitude": 35.8598951,
        "longitude": 139.623198,
        "address": "桜区町谷1丁目19-1",
        "type": "中学校"
    },
    {
        "name": "さいたま市立大久保中学校",
        "latitude": 35.8669007,
        "longitude": 139.5979414,
        "address": "桜区五関282",
        "type": "中学校"
    },
    {
        "name": "さいたま市立大谷場中学校",
        "latitude": 35.8534215,
        "longitude": 139.6742528,
        "address": "南区大谷場2丁目13-54",
        "type": "中学校"
    },
    {
        "name": "さいたま市立美園中学校",
        "latitude": 35.8921389,
        "longitude": 139.7126234,
        "address": "緑区大崎2550-3",
        "type": "中学校"
    },
    {
        "name": "さいたま市立大谷口中学校",
        "latitude": 35.8628465,
        "longitude": 139.6831659,
        "address": "南区広ヶ谷戸21",
        "type": "中学校"
    },
    {
        "name": "さいたま市立田島中学校",
        "latitude": 35.838475,
        "longitude": 139.6225816,
        "address": "桜区田島10丁目13-1",
        "type": "中学校"
    },
    {
        "name": "さいたま市立三室中学校",
        "latitude": 35.8867226,
        "longitude": 139.6842384,
        "address": "緑区馬場1丁目38-2",
        "type": "中学校"
    },
    {
        "name": "さいたま市立上大久保中学校",
        "latitude": 35.8718673,
        "longitude": 139.6163867,
        "address": "桜区上大久保861-1",
        "type": "中学校"
    },
    {
        "name": "さいたま市立内谷中学校",
        "latitude": 35.8352541,
        "longitude": 139.6479275,
        "address": "南区内谷6丁目10-1",
        "type": "中学校"
    },
    {
        "name": "さいたま市立尾間木中学校",
        "latitude": 35.8688522,
        "longitude": 139.6984635,
        "address": "緑区東浦和4丁目29-1",
        "type": "中学校"
    },
    {
        "name": "さいたま市立大宮東中学校",
        "latitude": 35.9081325,
        "longitude": 139.6350034,
        "address": "大宮区堀の内町1丁目99",
        "type": "中学校"
    },
    {
        "name": "さいたま市立大宮南中学校",
        "latitude": 35.8990706,
        "longitude": 139.6367866,
        "address": "大宮区天沼町2丁目362",
        "type": "中学校"
    },
    {
        "name": "さいたま市立大宮北中学校",
        "latitude": 35.9215763,
        "longitude": 139.6329255,
        "address": "大宮区寿能町1丁目21",
        "type": "中学校"
    },
    {
        "name": "さいたま市立桜木中学校",
        "latitude": 35.9052995,
        "longitude": 139.6166701,
        "address": "大宮区桜木町4丁目219",
        "type": "中学校"
    },
    {
        "name": "さいたま市立三橋中学校",
        "latitude": 35.9047788,
        "longitude": 139.6022142,
        "address": "大宮区三橋1丁目1300",
        "type": "中学校"
    },
    {
        "name": "さいたま市立大成中学校",
        "latitude": 35.9132813,
        "longitude": 139.613303,
        "address": "大宮区大成町2丁目379",
        "type": "中学校"
    },
    {
        "name": "さいたま市立日進中学校",
        "latitude": 35.9215133,
        "longitude": 139.6100145,
        "address": "北区櫛引町2丁目503-1",
        "type": "中学校"
    },
    {
        "name": "さいたま市立宮原中学校",
        "latitude": 35.9519175,
        "longitude": 139.6051078,
        "address": "北区宮原町4丁目129",
        "type": "中学校"
    },
    {
        "name": "さいたま市立植竹中学校",
        "latitude": 35.9339878,
        "longitude": 139.6270253,
        "address": "北区土呂町352",
        "type": "中学校"
    },
    {
        "name": "さいたま市立大砂土中学校",
        "latitude": 35.9379901,
        "longitude": 139.6446878,
        "address": "見沼区東大宮1丁目100-1",
        "type": "中学校"
    },
    {
        "name": "さいたま市立指扇中学校",
        "latitude": 35.9275148,
        "longitude": 139.5770727,
        "address": "西区清河寺185-2",
        "type": "中学校"
    },
    {
        "name": "さいたま市立馬宮中学校",
        "latitude": 35.8991051,
        "longitude": 139.5799245,
        "address": "西区二ツ宮589-1",
        "type": "中学校"
    },
    {
        "name": "さいたま市立片柳中学校",
        "latitude": 35.906825,
        "longitude": 139.6741513,
        "address": "見沼区御蔵551",
        "type": "中学校"
    },
    {
        "name": "さいたま市立春里中学校",
        "latitude": 35.940931,
        "longitude": 139.6641298,
        "address": "見沼区小深作268-19",
        "type": "中学校"
    },
    {
        "name": "さいたま市立大宮西中学校",
        "latitude": 35.920152,
        "longitude": 139.5905867,
        "address": "西区三橋6丁目1558",
        "type": "中学校"
    },
    {
        "name": "さいたま市立七里中学校",
        "latitude": 35.9277122,
        "longitude": 139.6810131,
        "address": "見沼区東宮下1丁目1-1",
        "type": "中学校"
    },
    {
        "name": "さいたま市立泰平中学校",
        "latitude": 35.9486896,
        "longitude": 139.6271298,
        "address": "北区本郷町1991",
        "type": "中学校"
    },
    {
        "name": "さいたま市立宮前中学校",
        "latitude": 35.9298349,
        "longitude": 139.5981006,
        "address": "西区宮前町1467-1",
        "type": "中学校"
    },
    {
        "name": "さいたま市立植水中学校",
        "latitude": 35.8869395,
        "longitude": 139.5839486,
        "address": "西区三条町345-1",
        "type": "中学校"
    },
    {
        "name": "さいたま市立大谷中学校",
        "latitude": 35.925652,
        "longitude": 139.6668684,
        "address": "見沼区大谷1634-2",
        "type": "中学校"
    },
    {
        "name": "さいたま市立第二東中学校",
        "latitude": 35.9089339,
        "longitude": 139.6451112,
        "address": "大宮区天沼町1丁目760",
        "type": "中学校"
    },
    {
        "name": "さいたま市立土屋中学校",
        "latitude": 35.9117248,
        "longitude": 139.5709321,
        "address": "西区土屋1766-1",
        "type": "中学校"
    },
    {
        "name": "さいたま市立大宮八幡中学校",
        "latitude": 35.9192282,
        "longitude": 139.6532921,
        "address": "見沼区南中丸357",
        "type": "中学校"
    },
    {
        "name": "さいたま市立土呂中学校",
        "latitude": 35.9389182,
        "longitude": 139.6372627,
        "address": "北区見沼3丁目75",
        "type": "中学校"
    },
    {
        "name": "さいたま市立春野中学校",
        "latitude": 35.9565444,
        "longitude": 139.6632244,
        "address": "見沼区春野2丁目2-1",
        "type": "中学校"
    },
    {
        "name": "さいたま市立与野東中学校",
        "latitude": 35.8884985,
        "longitude": 139.6321857,
        "address": "中央区下落合3丁目21-10",
        "type": "中学校"
    },
    {
        "name": "さいたま市立与野西中学校",
        "latitude": 35.8779357,
        "longitude": 139.6235844,
        "address": "中央区鈴谷8丁目10-33",
        "type": "中学校"
    },
    {
        "name": "さいたま市立与野南中学校",
        "latitude": 35.8657006,
        "longitude": 139.6347551,
        "address": "中央区大戸2丁目6-25",
        "type": "中学校"
    },
    {
        "name": "さいたま市立八王子中学校",
        "latitude": 35.8785748,
        "longitude": 139.6083743,
        "address": "中央区八王子4丁目2-1",
        "type": "中学校"
    },
    {
        "name": "さいたま市立岩槻中学校",
        "latitude": 35.949428,
        "longitude": 139.7036382,
        "address": "岩槻区仲町1丁目14-35",
        "type": "中学校"
    },
    {
        "name": "さいたま市立川通中学校",
        "latitude": 35.9478442,
        "longitude": 139.7313645,
        "address": "岩槻区長宮435",
        "type": "中学校"
    },
    {
        "name": "さいたま市立城南中学校",
        "latitude": 35.9149907,
        "longitude": 139.727192,
        "address": "岩槻区笹久保577",
        "type": "中学校"
    },
    {
        "name": "さいたま市立慈恩寺中学校",
        "latitude": 35.9852249,
        "longitude": 139.7049493,
        "address": "岩槻区裏慈恩寺505",
        "type": "中学校"
    },
    {
        "name": "さいたま市立城北中学校",
        "latitude": 35.9647836,
        "longitude": 139.689297,
        "address": "岩槻区本宿392-1",
        "type": "中学校"
    },
    {
        "name": "さいたま市立桜山中学校",
        "latitude": 35.9729116,
        "longitude": 139.7111876,
        "address": "岩槻区表慈恩寺684-1",
        "type": "中学校"
    },
    {
        "name": "さいたま市立柏陽中学校",
        "latitude": 35.9359452,
        "longitude": 139.7030404,
        "address": "岩槻区真福寺454",
        "type": "中学校"
    },
    {
        "name": "さいたま市立西原中学校",
        "latitude": 35.9551333,
        "longitude": 139.6814421,
        "address": "岩槻区岩槻3750",
        "type": "中学校"
    },
    {
        "name": "さいたま市立浦和中学校",
        "latitude": 35.8711333,
        "longitude": 139.6573241,
        "address": "浦和区元町1丁目28-17",
        "type": "中学校"
    },
    {
        "name": "さいたま市立高砂小学校",
        "latitude": 35.8565402,
        "longitude": 139.6567957,
        "address": "浦和区岸町4丁目1-29",
        "type": "小学校"
    },
    {
        "name": "さいたま市立常盤小学校",
        "latitude": 35.8687852,
        "longitude": 139.6431591,
        "address": "浦和区常盤9丁目30-9",
        "type": "小学校"
    },
    {
        "name": "さいたま市立木崎小学校",
        "latitude": 35.8828389,
        "longitude": 139.6528972,
        "address": "浦和区領家4丁目19-4",
        "type": "小学校"
    },
    {
        "name": "さいたま市立谷田小学校",
        "latitude": 35.8563425,
        "longitude": 139.6779167,
        "address": "南区太田窪5丁目10-6",
        "type": "小学校"
    },
    {
        "name": "さいたま市立仲本小学校",
        "latitude": 35.861645,
        "longitude": 139.6610407,
        "address": "浦和区本太2丁目12-31",
        "type": "小学校"
    },
    {
        "name": "さいたま市立本太小学校",
        "latitude": 35.8652862,
        "longitude": 139.6575864,
        "address": "浦和区本太2丁目26-25",
        "type": "小学校"
    },
    {
        "name": "さいたま市立三室小学校",
        "latitude": 35.8839859,
        "longitude": 139.6821945,
        "address": "緑区三室1994",
        "type": "小学校"
    },
    {
        "name": "さいたま市立尾間木小学校",
        "latitude": 35.8692123,
        "longitude": 139.6971483,
        "address": "緑区東浦和8丁目11-5",
        "type": "小学校"
    },
    {
        "name": "さいたま市立南浦和小学校",
        "latitude": 35.8452633,
        "longitude": 139.6579715,
        "address": "南区白幡1丁目1-20",
        "type": "小学校"
    },
    {
        "name": "さいたま市立浦和別所小学校",
        "latitude": 35.849628,
        "longitude": 139.6481557,
        "address": "南区別所2丁目5-34",
        "type": "小学校"
    },
    {
        "name": "さいたま市立北浦和小学校",
        "latitude": 35.8773737,
        "longitude": 139.6483223,
        "address": "浦和区北浦和2丁目18-3",
        "type": "小学校"
    },
    {
        "name": "さいたま市立仲町小学校",
        "latitude": 35.8641462,
        "longitude": 139.6405637,
        "address": "浦和区常盤8丁目18-4",
        "type": "小学校"
    },
    {
        "name": "さいたま市立上木崎小学校",
        "latitude": 35.8877089,
        "longitude": 139.6429528,
        "address": "浦和区上木崎3丁目4-3",
        "type": "小学校"
    },
    {
        "name": "さいたま市立岸町小学校",
        "latitude": 35.8510276,
        "longitude": 139.6502606,
        "address": "浦和区岸町5丁目20-4",
        "type": "小学校"
    },
    {
        "name": "さいたま市立大谷場小学校",
        "latitude": 35.8527792,
        "longitude": 139.6679633,
        "address": "南区南浦和1丁目18-3",
        "type": "小学校"
    },
    {
        "name": "さいたま市立土合小学校",
        "latitude": 35.8578801,
        "longitude": 139.6270631,
        "address": "桜区西堀7丁目21-1",
        "type": "小学校"
    },
    {
        "name": "さいたま市立大久保小学校",
        "latitude": 35.8724273,
        "longitude": 139.5986255,
        "address": "桜区五関21",
        "type": "小学校"
    },
    {
        "name": "さいたま市立原山小学校",
        "latitude": 35.8663979,
        "longitude": 139.6707648,
        "address": "緑区原山1丁目30-12",
        "type": "小学校"
    },
    {
        "name": "さいたま市立針ヶ谷小学校",
        "latitude": 35.8818921,
        "longitude": 139.6490582,
        "address": "浦和区領家7丁目2-1",
        "type": "小学校"
    },
    {
        "name": "さいたま市立大谷場東小学校",
        "latitude": 35.8534017,
        "longitude": 139.6749531,
        "address": "南区大谷場2丁目13-54",
        "type": "小学校"
    },
    {
        "name": "さいたま市立大門小学校",
        "latitude": 35.8807931,
        "longitude": 139.7335412,
        "address": "緑区大門1189",
        "type": "小学校"
    },
    {
        "name": "さいたま市立野田小学校",
        "latitude": 35.9002314,
        "longitude": 139.7039548,
        "address": "緑区上野田16",
        "type": "小学校"
    },
    {
        "name": "さいたま市立西浦和小学校",
        "latitude": 35.8384836,
        "longitude": 139.6301684,
        "address": "南区曲本1丁目3-5",
        "type": "小学校"
    },
    {
        "name": "さいたま市立辻小学校",
        "latitude": 35.8332822,
        "longitude": 139.6583359,
        "address": "南区辻6丁目3-28",
        "type": "小学校"
    },
    {
        "name": "さいたま市立大東小学校",
        "latitude": 35.8835214,
        "longitude": 139.6645276,
        "address": "浦和区大東3丁目14-1",
        "type": "小学校"
    },
    {
        "name": "さいたま市立文蔵小学校",
        "latitude": 35.8351911,
        "longitude": 139.6739404,
        "address": "南区文蔵5丁目16-29",
        "type": "小学校"
    },
    {
        "name": "さいたま市立沼影小学校",
        "latitude": 35.8391289,
        "longitude": 139.6462743,
        "address": "南区沼影2丁目8-36",
        "type": "小学校"
    },
    {
        "name": "さいたま市立大谷口小学校",
        "latitude": 35.8625114,
        "longitude": 139.6833135,
        "address": "南区広ヶ谷戸24",
        "type": "小学校"
    },
    {
        "name": "さいたま市立栄和小学校",
        "latitude": 35.8617584,
        "longitude": 139.6175204,
        "address": "桜区栄和1丁目7-1",
        "type": "小学校"
    },
    {
        "name": "さいたま市立道祖土小学校",
        "latitude": 35.874738,
        "longitude": 139.6688806,
        "address": "緑区道祖土1丁目1-1",
        "type": "小学校"
    },
    {
        "name": "さいたま市立田島小学校",
        "latitude": 35.8377634,
        "longitude": 139.6233599,
        "address": "桜区田島10丁目12-1",
        "type": "小学校"
    },
    {
        "name": "さいたま市立大久保東小学校",
        "latitude": 35.8712917,
        "longitude": 139.6034359,
        "address": "桜区大久保領家331",
        "type": "小学校"
    },
    {
        "name": "さいたま市立浦和大里小学校",
        "latitude": 35.844779,
        "longitude": 139.6436311,
        "address": "南区別所7丁目14-28",
        "type": "小学校"
    },
    {
        "name": "さいたま市立新開小学校",
        "latitude": 35.8509825,
        "longitude": 139.6182366,
        "address": "桜区新開2丁目18-1",
        "type": "小学校"
    },
    {
        "name": "さいたま市立神田小学校",
        "latitude": 35.8751523,
        "longitude": 139.607354,
        "address": "桜区神田541-1",
        "type": "小学校"
    },
    {
        "name": "さいたま市立中尾小学校",
        "latitude": 35.8680829,
        "longitude": 139.6826742,
        "address": "緑区中尾2596-1",
        "type": "小学校"
    },
    {
        "name": "さいたま市立善前小学校",
        "latitude": 35.8531781,
        "longitude": 139.6860068,
        "address": "南区太田窪2500-1",
        "type": "小学校"
    },
    {
        "name": "さいたま市立大牧小学校",
        "latitude": 35.8724897,
        "longitude": 139.7068465,
        "address": "緑区東浦和6丁目12-3",
        "type": "小学校"
    },
    {
        "name": "さいたま市立中島小学校",
        "latitude": 35.8654134,
        "longitude": 139.6239382,
        "address": "桜区中島1丁目28-1",
        "type": "小学校"
    },
    {
        "name": "さいたま市立芝原小学校",
        "latitude": 35.8818243,
        "longitude": 139.6915416,
        "address": "緑区芝原2丁目5",
        "type": "小学校"
    },
    {
        "name": "さいたま市立常盤北小学校",
        "latitude": 35.878862,
        "longitude": 139.6390732,
        "address": "浦和区針ヶ谷4丁目2-12",
        "type": "小学校"
    },
    {
        "name": "さいたま市立向小学校",
        "latitude": 35.8573114,
        "longitude": 139.6958644,
        "address": "南区大谷口5437",
        "type": "小学校"
    },
    {
        "name": "さいたま市立大宮小学校",
        "latitude": 35.9066427,
        "longitude": 139.6300819,
        "address": "大宮区大門町3丁目3",
        "type": "小学校"
    },
    {
        "name": "さいたま市立大宮東小学校",
        "latitude": 35.9139472,
        "longitude": 139.6356471,
        "address": "大宮区堀の内町3丁目145",
        "type": "小学校"
    },
    {
        "name": "さいたま市立大宮南小学校",
        "latitude": 35.9008902,
        "longitude": 139.6338016,
        "address": "大宮区吉敷町3丁目87",
        "type": "小学校"
    },
    {
        "name": "さいたま市立大宮北小学校",
        "latitude": 35.9116699,
        "longitude": 139.6271357,
        "address": "大宮区宮町3丁目84",
        "type": "小学校"
    },
    {
        "name": "さいたま市立桜木小学校",
        "latitude": 35.903571,
        "longitude": 139.6170936,
        "address": "大宮区桜木町4丁目328-9",
        "type": "小学校"
    },
    {
        "name": "さいたま市立三橋小学校",
        "latitude": 35.9039914,
        "longitude": 139.6043486,
        "address": "大宮区三橋2丁目20",
        "type": "小学校"
    },
    {
        "name": "さいたま市立大成小学校",
        "latitude": 35.914945,
        "longitude": 139.6138608,
        "address": "大宮区大成町2丁目282",
        "type": "小学校"
    },
    {
        "name": "さいたま市立東大成小学校",
        "latitude": 35.9249602,
        "longitude": 139.6188557,
        "address": "北区東大成町2丁目12",
        "type": "小学校"
    },
    {
        "name": "さいたま市立日進小学校",
        "latitude": 35.9252012,
        "longitude": 139.6076042,
        "address": "北区日進町2丁目911",
        "type": "小学校"
    },
    {
        "name": "さいたま市立日進北小学校",
        "latitude": 35.9368612,
        "longitude": 139.6039426,
        "address": "北区日進町3丁目178",
        "type": "小学校"
    },
    {
        "name": "さいたま市立宮原小学校",
        "latitude": 35.9490985,
        "longitude": 139.6061601,
        "address": "北区宮原町4丁目102-6",
        "type": "小学校"
    },
    {
        "name": "さいたま市立植竹小学校",
        "latitude": 35.9300053,
        "longitude": 139.6257619,
        "address": "北区植竹町2丁目1",
        "type": "小学校"
    },
    {
        "name": "さいたま市立大砂土小学校",
        "latitude": 35.9380076,
        "longitude": 139.6269762,
        "address": "北区本郷町1",
        "type": "小学校"
    },
    {
        "name": "さいたま市立大砂土東小学校",
        "latitude": 35.937816,
        "longitude": 139.6469866,
        "address": "見沼区大和田町2丁目998",
        "type": "小学校"
    },
    {
        "name": "さいたま市立見沼小学校",
        "latitude": 35.9488195,
        "longitude": 139.6326119,
        "address": "見沼区東大宮2丁目45",
        "type": "小学校"
    },
    {
        "name": "さいたま市立指扇小学校",
        "latitude": 35.9227933,
        "longitude": 139.5729679,
        "address": "西区指扇4226",
        "type": "小学校"
    },
    {
        "name": "さいたま市立馬宮東小学校",
        "latitude": 35.9039345,
        "longitude": 139.5713645,
        "address": "西区西遊馬189-1",
        "type": "小学校"
    },
    {
        "name": "さいたま市立馬宮西小学校",
        "latitude": 35.8862476,
        "longitude": 139.5595517,
        "address": "西区飯田新田189-2",
        "type": "小学校"
    },
    {
        "name": "さいたま市立植水小学校",
        "latitude": 35.8944299,
        "longitude": 139.5947737,
        "address": "西区中野林225-1",
        "type": "小学校"
    },
    {
        "name": "さいたま市立片柳小学校",
        "latitude": 35.910758,
        "longitude": 139.6702252,
        "address": "見沼区東新井244-1",
        "type": "小学校"
    },
    {
        "name": "さいたま市立七里小学校",
        "latitude": 35.9293773,
        "longitude": 139.6758898,
        "address": "見沼区東宮下312",
        "type": "小学校"
    },
    {
        "name": "さいたま市立春岡小学校",
        "latitude": 35.9495949,
        "longitude": 139.6622387,
        "address": "見沼区春岡2丁目29-1",
        "type": "小学校"
    },
    {
        "name": "さいたま市立大宮西小学校",
        "latitude": 35.9041791,
        "longitude": 139.5905271,
        "address": "西区三橋5丁目1359",
        "type": "小学校"
    },
    {
        "name": "さいたま市立栄小学校",
        "latitude": 35.9069567,
        "longitude": 139.5829522,
        "address": "西区飯田811",
        "type": "小学校"
    },
    {
        "name": "さいたま市立大宮別所小学校",
        "latitude": 35.955147,
        "longitude": 139.5973356,
        "address": "北区別所町42-1",
        "type": "小学校"
    },
    {
        "name": "さいたま市立芝川小学校",
        "latitude": 35.9052438,
        "longitude": 139.6444566,
        "address": "大宮区天沼町2丁目1077",
        "type": "小学校"
    },
    {
        "name": "さいたま市立蓮沼小学校",
        "latitude": 35.934316,
        "longitude": 139.6606086,
        "address": "見沼区蓮沼1070",
        "type": "小学校"
    },
    {
        "name": "さいたま市立上小小学校",
        "latitude": 35.8966922,
        "longitude": 139.6166832,
        "address": "大宮区上小町1337-1",
        "type": "小学校"
    },
    {
        "name": "さいたま市立宮前小学校",
        "latitude": 35.9231627,
        "longitude": 139.5943454,
        "address": "西区宮前町341",
        "type": "小学校"
    },
    {
        "name": "さいたま市立大谷小学校",
        "latitude": 35.9212036,
        "longitude": 139.6658947,
        "address": "見沼区大谷18",
        "type": "小学校"
    },
    {
        "name": "さいたま市立島小学校",
        "latitude": 35.9468495,
        "longitude": 139.6517828,
        "address": "見沼区島町533-2",
        "type": "小学校"
    },
    {
        "name": "さいたま市立指扇北小学校",
        "latitude": 35.9335728,
        "longitude": 139.5719665,
        "address": "西区中釘1506-1",
        "type": "小学校"
    },
    {
        "name": "さいたま市立東宮下小学校",
        "latitude": 35.9259145,
        "longitude": 139.6776449,
        "address": "見沼区東宮下215-1",
        "type": "小学校"
    },
    {
        "name": "さいたま市立泰平小学校",
        "latitude": 35.9501991,
        "longitude": 139.6258542,
        "address": "北区今羽町628",
        "type": "小学校"
    },
    {
        "name": "さいたま市立海老沼小学校",
        "latitude": 35.9082327,
        "longitude": 139.6600122,
        "address": "見沼区東新井710-5",
        "type": "小学校"
    },
    {
        "name": "さいたま市立春野小学校",
        "latitude": 35.9567572,
        "longitude": 139.6674662,
        "address": "見沼区春野1丁目10-1",
        "type": "小学校"
    },
    {
        "name": "さいたま市立与野本町小学校",
        "latitude": 35.8836821,
        "longitude": 139.6228486,
        "address": "中央区本町東3丁目5-23",
        "type": "小学校"
    },
    {
        "name": "さいたま市立上落合小学校",
        "latitude": 35.8940704,
        "longitude": 139.6258448,
        "address": "中央区上落合4丁目14-24",
        "type": "小学校"
    },
    {
        "name": "さいたま市立大戸小学校",
        "latitude": 35.8724274,
        "longitude": 139.6358656,
        "address": "中央区新中里1丁目6-28",
        "type": "小学校"
    },
    {
        "name": "さいたま市立下落合小学校",
        "latitude": 35.8899203,
        "longitude": 139.6314716,
        "address": "中央区上落合1丁目7-33",
        "type": "小学校"
    },
    {
        "name": "さいたま市立与野西北小学校",
        "latitude": 35.8876058,
        "longitude": 139.6079287,
        "address": "中央区円阿弥4丁目3-7",
        "type": "小学校"
    },
    {
        "name": "さいたま市立鈴谷小学校",
        "latitude": 35.8713433,
        "longitude": 139.6314492,
        "address": "中央区鈴谷5丁目1-1",
        "type": "小学校"
    },
    {
        "name": "さいたま市立与野八幡小学校",
        "latitude": 35.8909133,
        "longitude": 139.6220754,
        "address": "中央区本町東5丁目23-14",
        "type": "小学校"
    },
    {
        "name": "さいたま市立与野南小学校",
        "latitude": 35.8666965,
        "longitude": 139.6357118,
        "address": "中央区大戸6丁目2-25",
        "type": "小学校"
    },
    {
        "name": "さいたま市立岩槻小学校",
        "latitude": 35.9536949,
        "longitude": 139.6985366,
        "address": "岩槻区本町5丁目6-45",
        "type": "小学校"
    },
    {
        "name": "さいたま市立太田小学校",
        "latitude": 35.9481443,
        "longitude": 139.704578,
        "address": "岩槻区仲町1丁目17-3",
        "type": "小学校"
    },
    {
        "name": "さいたま市立川通小学校",
        "latitude": 35.9419524,
        "longitude": 139.7312004,
        "address": "岩槻区大野島422-1",
        "type": "小学校"
    },
    {
        "name": "さいたま市立柏崎小学校",
        "latitude": 35.9337231,
        "longitude": 139.7014645,
        "address": "岩槻区柏崎762",
        "type": "小学校"
    },
    {
        "name": "さいたま市立和土小学校",
        "latitude": 35.9261999,
        "longitude": 139.7206831,
        "address": "岩槻区黒谷1353",
        "type": "小学校"
    },
    {
        "name": "さいたま市立新和小学校",
        "latitude": 35.9105858,
        "longitude": 139.7324384,
        "address": "岩槻区尾ヶ崎1252",
        "type": "小学校"
    },
    {
        "name": "さいたま市立慈恩寺小学校",
        "latitude": 35.9816894,
        "longitude": 139.7077972,
        "address": "岩槻区慈恩寺259",
        "type": "小学校"
    },
    {
        "name": "さいたま市立河合小学校",
        "latitude": 35.9672515,
        "longitude": 139.6720618,
        "address": "岩槻区平林寺351",
        "type": "小学校"
    },
    {
        "name": "さいたま市立東岩槻小学校",
        "latitude": 35.9702155,
        "longitude": 139.7093288,
        "address": "岩槻区諏訪2丁目6-1",
        "type": "小学校"
    },
    {
        "name": "さいたま市立城北小学校",
        "latitude": 35.9620449,
        "longitude": 139.6939101,
        "address": "岩槻区岩槻6619",
        "type": "小学校"
    },
    {
        "name": "さいたま市立徳力小学校",
        "latitude": 35.9741308,
        "longitude": 139.7164774,
        "address": "岩槻区徳力136-4",
        "type": "小学校"
    },
    {
        "name": "さいたま市立上里小学校",
        "latitude": 35.9651552,
        "longitude": 139.7041699,
        "address": "岩槻区上里2丁目2",
        "type": "小学校"
    },
    {
        "name": "さいたま市立西原小学校",
        "latitude": 35.9527001,
        "longitude": 139.6833046,
        "address": "岩槻区西原6-25",
        "type": "小学校"
    },
    {
        "name": "さいたま市立城南小学校",
        "latitude": 35.9359332,
        "longitude": 139.712631,
        "address": "岩槻区南下新井1191-1",
        "type": "小学校"
    },
    {
        "name": "さいたま市立辻南小学校",
        "latitude": 35.8315171,
        "longitude": 139.6651876,
        "address": "南区辻8丁目7-32",
        "type": "小学校"
    },
    {
        "name": "さいたま市立つばさ小学校",
        "latitude": 35.9335265,
        "longitude": 139.6105142,
        "address": "北区宮原町3丁目902-4",
        "type": "小学校"
    },
    {
        "name": "さいたま市立美園小学校",
        "latitude": 35.8906454,
        "longitude": 139.7353881,
        "address": "緑区美園5丁目33",
        "type": "小学校"
    },
    {
        "name": "市民活動サポートセンター",
        "latitude": 35.8586575,
        "longitude": 139.6589783,
        "address": "浦和区東高砂町11番1",
        "type": "施設"
    },
    {
        "name": "地域中核施設　プラザウエスト",
        "latitude": 35.855876,
        "longitude": 139.609766,
        "address": "桜区道場４丁目3番1",
        "type": "施設"
    },
    {
        "name": "地域中核施設　プラザイースト",
        "latitude": 35.871751,
        "longitude": 139.685717,
        "address": "緑区大字中尾1440番8",
        "type": "施設"
    },
    {
        "name": "地域中核施設　プラザノース",
        "latitude": 35.931511,
        "longitude": 139.620229,
        "address": "北区宮原町１丁目852番1",
        "type": "施設"
    },
    {
        "name": "南浦和コミュニティセンター",
        "latitude": 35.854539,
        "longitude": 139.67218,
        "address": "南区大谷場２丁目6番25",
        "type": "施設"
    },
    {
        "name": "コミュニティセンターいわつき",
        "latitude": 35.947022,
        "longitude": 139.691683,
        "address": "岩槻区本町１丁目10番7",
        "type": "施設"
    },
    {
        "name": "ふれあいプラザいわつき",
        "latitude": 35.96204,
        "longitude": 139.716358,
        "address": "岩槻区東岩槻６丁目6番",
        "type": "施設"
    },
    {
        "name": "東大宮コミュニティセンター",
        "latitude": 35.949534,
        "longitude": 139.637355,
        "address": "見沼区東大宮４丁目31番1",
        "type": "施設"
    },
    {
        "name": "七里コミュニティセンター",
        "latitude": 35.921042,
        "longitude": 139.674347,
        "address": "見沼区大字大谷1210番",
        "type": "施設"
    },
    {
        "name": "宮原コミュニティセンター",
        "latitude": 35.958575,
        "longitude": 139.600761,
        "address": "北区吉野町２丁目195番1",
        "type": "施設"
    },
    {
        "name": "馬宮コミュニティセンター",
        "latitude": 35.905092,
        "longitude": 139.572728,
        "address": "西区大字西遊馬533番1",
        "type": "施設"
    },
    {
        "name": "西部文化センター",
        "latitude": 35.917656,
        "longitude": 139.59196,
        "address": "西区三橋６丁目642番4",
        "type": "施設"
    },
    {
        "name": "与野本町コミュニティセンター",
        "latitude": 35.883643,
        "longitude": 139.623672,
        "address": "中央区本町東３丁目5番43",
        "type": "施設"
    },
    {
        "name": "上峰コミュニティホール",
        "latitude": 35.874025,
        "longitude": 139.616542,
        "address": "中央区上峰２丁目3番5",
        "type": "施設"
    },
    {
        "name": "西与野コミュニティホール",
        "latitude": 35.882184,
        "longitude": 139.614901,
        "address": "中央区桜丘２丁目6番28",
        "type": "施設"
    },
    {
        "name": "高鼻コミュニティセンター",
        "latitude": 35.915919,
        "longitude": 139.631595,
        "address": "大宮区高鼻町２丁目292番1",
        "type": "施設"
    },
    {
        "name": "大宮工房館",
        "latitude": 35.912184,
        "longitude": 139.641458,
        "address": "大宮区堀の内町１丁目577番3",
        "type": "施設"
    },
    {
        "name": "片柳コミュニティセンター",
        "latitude": 35.909901,
        "longitude": 139.684055,
        "address": "見沼区染谷３丁目147番1",
        "type": "施設"
    },
    {
        "name": "下落合コミュニティセンター",
        "latitude": 35.8847428,
        "longitude": 139.6366376,
        "address": "中央区大字下落合1712番",
        "type": "施設"
    },
    {
        "name": "浦和コミュニティセンター",
        "latitude": 35.8586575,
        "longitude": 139.6589783,
        "address": "浦和区東高砂町11番1",
        "type": "施設"
    },
    {
        "name": "岩槻駅東口コミュニティセンター",
        "latitude": 35.9503691,
        "longitude": 139.6935358,
        "address": "岩槻区本町３丁目1番1",
        "type": "施設"
    },
    {
        "name": "日進公園コミュニティセンター",
        "latitude": 35.9218395,
        "longitude": 139.6050003,
        "address": "北区日進町１丁目312番2",
        "type": "施設"
    },
    {
        "name": "武蔵浦和コミュニティセンター",
        "latitude": 35.8452105,
        "longitude": 139.6452889,
        "address": "南区別所７丁目20番1",
        "type": "施設"
    },
    {
        "name": "生涯学習総合センター",
        "latitude": 35.861729,
        "longitude": 139.645482,
        "address": "大宮区桜木町１丁目10番18",
        "type": "施設"
    },
    {
        "name": "指扇公民館",
        "latitude": 35.925133,
        "longitude": 139.572056,
        "address": "西区大字高木449番1",
        "type": "施設"
    },
    {
        "name": "大砂土公民館",
        "latitude": 35.938988,
        "longitude": 139.630123,
        "address": "北区本郷町284番",
        "type": "施設"
    },
    {
        "name": "大砂土東公民館",
        "latitude": 35.931406,
        "longitude": 139.648822,
        "address": "見沼区大和田町２丁目1445番",
        "type": "施設"
    },
    {
        "name": "田島公民館",
        "latitude": 35.845453,
        "longitude": 139.632803,
        "address": "桜区田島３丁目27番6",
        "type": "施設"
    },
    {
        "name": "文蔵公民館",
        "latitude": 35.837965,
        "longitude": 139.669597,
        "address": "南区文蔵４丁目19番3",
        "type": "施設"
    },
    {
        "name": "大古里公民館",
        "latitude": 35.887293,
        "longitude": 139.672957,
        "address": "緑区大字三室2614番2",
        "type": "施設"
    },
    {
        "name": "岩槻本丸公民館",
        "latitude": 35.954186,
        "longitude": 139.705258,
        "address": "岩槻区本丸３丁目17番1",
        "type": "施設"
    },
    {
        "name": "鈴谷公民館",
        "latitude": 35.874149,
        "longitude": 139.624234,
        "address": "中央区鈴谷７丁目5番11",
        "type": "施設"
    },
    {
        "name": "岸町公民館",
        "latitude": 35.852161,
        "longitude": 139.654504,
        "address": "浦和区岸町５丁目1番3",
        "type": "施設"
    },
    {
        "name": "桜木公民館",
        "latitude": 35.861729,
        "longitude": 139.645482,
        "address": "大宮区桜木町１丁目10番18",
        "type": "施設"
    },
    {
        "name": "馬宮公民館",
        "latitude": 35.90365,
        "longitude": 139.573128,
        "address": "西区大字西遊馬236番2",
        "type": "施設"
    },
    {
        "name": "植水公民館",
        "latitude": 35.893938,
        "longitude": 139.591685,
        "address": "西区大字中野林173番2",
        "type": "施設"
    },
    {
        "name": "日進公民館",
        "latitude": 35.927364,
        "longitude": 139.604225,
        "address": "北区日進町２丁目1195番2",
        "type": "施設"
    },
    {
        "name": "宮原公民館",
        "latitude": 35.94695,
        "longitude": 139.611055,
        "address": "北区宮原町４丁目66番4",
        "type": "施設"
    },
    {
        "name": "植竹公民館",
        "latitude": 35.927398,
        "longitude": 139.628148,
        "address": "北区盆栽町430番",
        "type": "施設"
    },
    {
        "name": "大宮南公民館",
        "latitude": 35.898363,
        "longitude": 139.635757,
        "address": "大宮区吉敷町４丁目223番2",
        "type": "施設"
    },
    {
        "name": "大宮中部公民館",
        "latitude": 35.90509,
        "longitude": 139.628937,
        "address": "大宮区仲町３丁目30番2",
        "type": "施設"
    },
    {
        "name": "大宮北公民館",
        "latitude": 35.911492,
        "longitude": 139.628571,
        "address": "大宮区宮町３丁目113番3",
        "type": "施設"
    },
    {
        "name": "大成公民館",
        "latitude": 35.913936,
        "longitude": 139.611516,
        "address": "大宮区大成町２丁目335番1",
        "type": "施設"
    },
    {
        "name": "大宮東公民館",
        "latitude": 35.914117,
        "longitude": 139.636626,
        "address": "大宮区堀の内町３丁目140番",
        "type": "施設"
    },
    {
        "name": "片柳公民館",
        "latitude": 35.909735,
        "longitude": 139.670831,
        "address": "見沼区大字東新井117番2",
        "type": "施設"
    },
    {
        "name": "七里公民館",
        "latitude": 35.927221,
        "longitude": 139.677414,
        "address": "見沼区大字東宮下265番1",
        "type": "施設"
    },
    {
        "name": "春岡公民館",
        "latitude": 35.950796,
        "longitude": 139.664369,
        "address": "見沼区深作１丁目5番1",
        "type": "施設"
    },
    {
        "name": "大戸公民館",
        "latitude": 35.865754,
        "longitude": 139.637286,
        "address": "中央区大戸３丁目14番21",
        "type": "施設"
    },
    {
        "name": "与野本町公民館",
        "latitude": 35.88209,
        "longitude": 139.619395,
        "address": "中央区本町西１丁目14番12",
        "type": "施設"
    },
    {
        "name": "上落合公民館",
        "latitude": 35.893517,
        "longitude": 139.623469,
        "address": "中央区上落合６丁目9番3",
        "type": "施設"
    },
    {
        "name": "下落合公民館",
        "latitude": 35.884484,
        "longitude": 139.628647,
        "address": "中央区下落合５丁目4番17",
        "type": "施設"
    },
    {
        "name": "土合公民館",
        "latitude": 35.851791,
        "longitude": 139.627784,
        "address": "桜区西堀４丁目2番35",
        "type": "施設"
    },
    {
        "name": "大久保公民館",
        "latitude": 35.870238,
        "longitude": 139.597828,
        "address": "桜区大字五関839番2",
        "type": "施設"
    },
    {
        "name": "栄和公民館",
        "latitude": 35.85874,
        "longitude": 139.613291,
        "address": "桜区道場２丁目11番27",
        "type": "施設"
    },
    {
        "name": "大久保東公民館",
        "latitude": 35.869561,
        "longitude": 139.608244,
        "address": "桜区大字大久保領家131番6",
        "type": "施設"
    },
    {
        "name": "浦和南公民館",
        "latitude": 35.850114,
        "longitude": 139.661009,
        "address": "浦和区神明１丁目28番13",
        "type": "施設"
    },
    {
        "name": "上木崎公民館",
        "latitude": 35.887257,
        "longitude": 139.645673,
        "address": "浦和区上木崎３丁目2番14",
        "type": "施設"
    },
    {
        "name": "大東公民館",
        "latitude": 35.883385,
        "longitude": 139.662619,
        "address": "浦和区大東２丁目13番16",
        "type": "施設"
    },
    {
        "name": "仲本公民館",
        "latitude": 35.860599,
        "longitude": 139.662045,
        "address": "浦和区本太２丁目12番40",
        "type": "施設"
    },
    {
        "name": "針ヶ谷公民館",
        "latitude": 35.882724,
        "longitude": 139.641987,
        "address": "浦和区針ヶ谷３丁目4番14",
        "type": "施設"
    },
    {
        "name": "本太公民館",
        "latitude": 35.866735,
        "longitude": 139.657973,
        "address": "浦和区本太４丁目3番23",
        "type": "施設"
    },
    {
        "name": "常盤公民館",
        "latitude": 35.869626,
        "longitude": 139.642929,
        "address": "浦和区常盤９丁目30番1",
        "type": "施設"
    },
    {
        "name": "北浦和公民館",
        "latitude": 35.877613,
        "longitude": 139.647737,
        "address": "浦和区北浦和２丁目19番25",
        "type": "施設"
    },
    {
        "name": "南箇公民館",
        "latitude": 35.876942,
        "longitude": 139.657989,
        "address": "浦和区領家３丁目15番10",
        "type": "施設"
    },
    {
        "name": "南浦和公民館",
        "latitude": 35.854539,
        "longitude": 139.67218,
        "address": "南区大谷場２丁目6番25",
        "type": "施設"
    },
    {
        "name": "谷田公民館",
        "latitude": 35.861516,
        "longitude": 139.677004,
        "address": "南区大字大谷口1089番1",
        "type": "施設"
    },
    {
        "name": "西浦和公民館",
        "latitude": 35.837782,
        "longitude": 139.638856,
        "address": "南区曲本２丁目7番11",
        "type": "施設"
    },
    {
        "name": "別所公民館",
        "latitude": 35.849494,
        "longitude": 139.643602,
        "address": "南区別所５丁目21番13",
        "type": "施設"
    },
    {
        "name": "東浦和公民館",
        "latitude": 35.861252,
        "longitude": 139.695075,
        "address": "南区大字大谷口5339番",
        "type": "施設"
    },
    {
        "name": "三室公民館",
        "latitude": 35.883144,
        "longitude": 139.681576,
        "address": "緑区大字三室1946番5",
        "type": "施設"
    },
    {
        "name": "尾間木公民館",
        "latitude": 35.875331,
        "longitude": 139.697552,
        "address": "緑区大字大間木749番",
        "type": "施設"
    },
    {
        "name": "原山公民館",
        "latitude": 35.871448,
        "longitude": 139.668552,
        "address": "緑区原山２丁目33番1",
        "type": "施設"
    },
    {
        "name": "美園公民館",
        "latitude": 35.889582,
        "longitude": 139.717863,
        "address": "緑区大字大門1973番1",
        "type": "施設"
    },
    {
        "name": "岩槻南部公民館",
        "latitude": 35.916421,
        "longitude": 139.715712,
        "address": "岩槻区大字笹久保1348番1",
        "type": "施設"
    },
    {
        "name": "岩槻北部公民館",
        "latitude": 35.98011,
        "longitude": 139.714257,
        "address": "岩槻区大字慈恩寺904番1",
        "type": "施設"
    },
    {
        "name": "岩槻城址公民館",
        "latitude": 35.951778,
        "longitude": 139.710724,
        "address": "岩槻区太田３丁目4番1",
        "type": "施設"
    },
    {
        "name": "仲町公民館",
        "latitude": 35.86136,
        "longitude": 139.649857,
        "address": "浦和区常盤４丁目1番12",
        "type": "施設"
    },
    {
        "name": "善前公民館",
        "latitude": 35.853822,
        "longitude": 139.687012,
        "address": "南区大字太田窪2504番5",
        "type": "施設"
    },
    {
        "name": "領家公民館",
        "latitude": 35.882124,
        "longitude": 139.653731,
        "address": "浦和区領家４丁目21番21",
        "type": "施設"
    },
    {
        "name": "三橋公民館",
        "latitude": 35.903926,
        "longitude": 139.605251,
        "address": "大宮区三橋２丁目20番",
        "type": "施設"
    },
    {
        "name": "六辻公民館",
        "latitude": 35.839662,
        "longitude": 139.662309,
        "address": "南区根岸３丁目10番7",
        "type": "施設"
    },
    {
        "name": "岩槻本町公民館",
        "latitude": 35.953682,
        "longitude": 139.700262,
        "address": "岩槻区本町４丁目2番25",
        "type": "施設"
    },
    {
        "name": "内野公民館",
        "latitude": 35.925166,
        "longitude": 139.579633,
        "address": "西区三橋６丁目1457番1",
        "type": "施設"
    },
    {
        "name": "文化センター",
        "latitude": 35.843479,
        "longitude": 139.663526,
        "address": "南区根岸１丁目7番1",
        "type": "施設"
    },
    {
        "name": "市民会館うらわ",
        "latitude": 35.860463,
        "longitude": 139.651332,
        "address": "浦和区仲町２丁目10番22",
        "type": "施設"
    },
    {
        "name": "市民会館おおみや",
        "latitude": 35.902865,
        "longitude": 139.63089,
        "address": "大宮区下町３丁目47番8",
        "type": "施設"
    },
    {
        "name": "市民会館いわつき",
        "latitude": 35.9507304,
        "longitude": 139.7089925,
        "address": "岩槻区太田３丁目1番1",
        "type": "施設"
    },
    {
        "name": "盆栽四季の家",
        "latitude": 35.926751,
        "longitude": 139.633251,
        "address": "北区盆栽町267番1",
        "type": "施設"
    },
    {
        "name": "大宮ソニック市民ホール",
        "latitude": 35.905323,
        "longitude": 139.619835,
        "address": "大宮区桜木町１丁目7番5",
        "type": "施設"
    },
    {
        "name": "恭慶館",
        "latitude": 35.869424,
        "longitude": 139.644552,
        "address": "浦和区常盤９丁目30番5",
        "type": "施設"
    },
    {
        "name": "氷川の杜文化館",
        "latitude": 35.913708,
        "longitude": 139.631618,
        "address": "大宮区高鼻町２丁目262番2",
        "type": "施設"
    },
    {
        "name": "中央図書館",
        "latitude": 35.8586575,
        "longitude": 139.6589783,
        "address": "浦和区東高砂町11番1",
        "type": "施設"
    },
    {
        "name": "岩槻図書館",
        "latitude": 35.949176,
        "longitude": 139.697535,
        "address": "岩槻区本町４丁目2番25",
        "type": "施設"
    },
    {
        "name": "大宮西部図書館",
        "latitude": 35.919737,
        "longitude": 139.610358,
        "address": "北区櫛引町２丁目499番1",
        "type": "施設"
    },
    {
        "name": "大宮図書館",
        "latitude": 35.911281,
        "longitude": 139.631215,
        "address": "大宮区高鼻町２丁目1番1",
        "type": "施設"
    },
    {
        "name": "北浦和図書館",
        "latitude": 35.874831,
        "longitude": 139.646351,
        "address": "浦和区北浦和１丁目4番2",
        "type": "施設"
    },
    {
        "name": "春野図書館",
        "latitude": 35.959106,
        "longitude": 139.660822,
        "address": "見沼区春野２丁目12番1",
        "type": "施設"
    },
    {
        "name": "与野図書館",
        "latitude": 35.885237,
        "longitude": 139.627124,
        "address": "中央区下落合５丁目11番11",
        "type": "施設"
    },
    {
        "name": "北図書館・視聴覚ライブラリー",
        "latitude": 35.931511,
        "longitude": 139.62023,
        "address": "北区宮原町１丁目852番1",
        "type": "施設"
    },
    {
        "name": "桜図書館",
        "latitude": 35.8558762,
        "longitude": 139.6097661,
        "address": "桜区道場４丁目3番1",
        "type": "施設"
    },
    {
        "name": "東浦和図書館",
        "latitude": 35.8717312,
        "longitude": 139.6857283,
        "address": "緑区大字中尾1440番8",
        "type": "施設"
    },
    {
        "name": "武蔵浦和図書館",
        "latitude": 35.8452105,
        "longitude": 139.6452889,
        "address": "南区別所７丁目20番1",
        "type": "施設"
    },
    {
        "name": "東浦和図書館",
        "latitude": 35.8717312,
        "longitude": 139.6857283,
        "address": "緑区大字中尾1440番8",
        "type": "施設"
    },
    {
        "name": "大宮東図書館",
        "latitude": 35.934434,
        "longitude": 139.657435,
        "address": "見沼区堀崎町48番1",
        "type": "施設"
    },
    {
        "name": "与野南図書館",
        "latitude": 35.866856,
        "longitude": 139.633983,
        "address": "中央区大戸６丁目28番16",
        "type": "施設"
    },
    {
        "name": "南浦和図書館",
        "latitude": 35.8434896,
        "longitude": 139.6635617,
        "address": "南区根岸１丁目7番1",
        "type": "施設"
    },
    {
        "name": "馬宮図書館",
        "latitude": 35.905092,
        "longitude": 139.572728,
        "address": "西区大字西遊馬533番1",
        "type": "施設"
    },
    {
        "name": "宮原図書館",
        "latitude": 35.958575,
        "longitude": 139.600761,
        "address": "北区吉野町２丁目195番1",
        "type": "施設"
    },
    {
        "name": "桜木図書館",
        "latitude": 35.861729,
        "longitude": 139.645482,
        "address": "大宮区桜木町１丁目10番18",
        "type": "施設"
    },
    {
        "name": "七里図書館",
        "latitude": 35.921042,
        "longitude": 139.674347,
        "address": "見沼区大字大谷1210番",
        "type": "施設"
    },
    {
        "name": "片柳図書館",
        "latitude": 35.909901,
        "longitude": 139.684055,
        "address": "見沼区染谷３丁目147番1",
        "type": "施設"
    },
    {
        "name": "岩槻駅東口図書館",
        "latitude": 35.950574,
        "longitude": 139.693962,
        "address": "岩槻区本町３丁目1番1",
        "type": "施設"
    },
    {
        "name": "岩槻東部図書館",
        "latitude": 35.976895,
        "longitude": 139.719315,
        "address": "岩槻区東岩槻６丁目6番",
        "type": "施設"
    },
    {
        "name": "大宮西部図書館三橋分館",
        "latitude": 35.917656,
        "longitude": 139.59196,
        "address": "西区三橋６丁目642番4",
        "type": "施設"
    },
    {
        "name": "与野図書館西分館",
        "latitude": 35.882184,
        "longitude": 139.614901,
        "address": "中央区桜丘２丁目6番28",
        "type": "施設"
    },
    {
        "name": "桜図書館大久保東分館",
        "latitude": 35.8695606,
        "longitude": 139.6082437,
        "address": "桜区大字大久保領家131番6",
        "type": "施設"
    },
    {
        "name": "さいたま市役所",
        "latitude": 35.861601,
        "longitude": 139.645585,
        "address": "浦和区常盤６丁目4番4",
        "type": "施設"
    },
    {
        "name": "ときわ会館",
        "latitude": 35.8617403,
        "longitude": 139.6441407,
        "address": "浦和区常盤６丁目4番21",
        "type": "施設"
    },
    {
        "name": "西区役所",
        "latitude": 35.925233,
        "longitude": 139.579655,
        "address": "西区大字指扇3743番",
        "type": "施設"
    },
    {
        "name": "大宮区役所",
        "latitude": 35.906382,
        "longitude": 139.629093,
        "address": "大宮区大門町３丁目1番",
        "type": "施設"
    },
    {
        "name": "見沼区役所",
        "latitude": 35.935484,
        "longitude": 139.655026,
        "address": "見沼区堀崎町12番36",
        "type": "施設"
    },
    {
        "name": "中央区役所",
        "latitude": 35.883965,
        "longitude": 139.626177,
        "address": "中央区下落合５丁目7番10",
        "type": "施設"
    },
    {
        "name": "南区役所",
        "latitude": 35.845384,
        "longitude": 139.645349,
        "address": "南区別所７丁目20番1",
        "type": "施設"
    },
    {
        "name": "緑区役所",
        "latitude": 35.871072,
        "longitude": 139.684158,
        "address": "緑区大字中尾975番1",
        "type": "施設"
    },
    {
        "name": "岩槻区役所",
        "latitude": 35.949908,
        "longitude": 139.694397,
        "address": "岩槻区本町３丁目2番5",
        "type": "施設"
    },
    {
        "name": "北区役所",
        "latitude": 35.931511,
        "longitude": 139.620229,
        "address": "北区宮原町１丁目852番1",
        "type": "施設"
    },
    {
        "name": "桜区役所",
        "latitude": 35.8558762,
        "longitude": 139.6097661,
        "address": "桜区道場４丁目3番1",
        "type": "施設"
    },
    {
        "name": "浦和区役所",
        "latitude": 35.514189,
        "longitude": 139.384398,
        "address": "浦和区常盤６丁目4番4",
        "type": "施設"
    },
    {
        "name": "土合支所",
        "latitude": 35.851791,
        "longitude": 139.627784,
        "address": "桜区西堀４丁目2番35",
        "type": "施設"
    },
    {
        "name": "馬宮支所",
        "latitude": 35.9036504,
        "longitude": 139.5731281,
        "address": "西区大字西遊馬236番2",
        "type": "施設"
    },
    {
        "name": "植水支所",
        "latitude": 35.8939378,
        "longitude": 139.5916854,
        "address": "西区大字中野林173番2",
        "type": "施設"
    },
    {
        "name": "三橋支所",
        "latitude": 35.917656,
        "longitude": 139.59196,
        "address": "西区三橋６丁目642番4",
        "type": "施設"
    },
    {
        "name": "日進支所",
        "latitude": 35.924417,
        "longitude": 139.606011,
        "address": "北区日進町２丁目965番",
        "type": "施設"
    },
    {
        "name": "宮原支所",
        "latitude": 35.5626,
        "longitude": 139.3635,
        "address": "北区宮原町３丁目824番2",
        "type": "施設"
    },
    {
        "name": "大宮駅支所",
        "latitude": 35.907164,
        "longitude": 139.622506,
        "address": "大宮区錦町630番",
        "type": "施設"
    },
    {
        "name": "片柳支所",
        "latitude": 35.909735,
        "longitude": 139.670831,
        "address": "見沼区大字東新井117番2",
        "type": "施設"
    },
    {
        "name": "七里支所",
        "latitude": 35.932863,
        "longitude": 139.672558,
        "address": "見沼区大字東門前379番1",
        "type": "施設"
    },
    {
        "name": "春岡支所",
        "latitude": 35.950796,
        "longitude": 139.664369,
        "address": "見沼区深作１丁目5番1",
        "type": "施設"
    },
    {
        "name": "東大宮支所",
        "latitude": 35.9495338,
        "longitude": 139.6373553,
        "address": "見沼区東大宮４丁目31番1",
        "type": "施設"
    },
    {
        "name": "大久保支所",
        "latitude": 35.870238,
        "longitude": 139.5978279,
        "address": "桜区大字五関839番2",
        "type": "施設"
    },
    {
        "name": "谷田支所",
        "latitude": 35.8598159,
        "longitude": 139.6759156,
        "address": "南区大字太田窪1277番1",
        "type": "施設"
    },
    {
        "name": "三室支所",
        "latitude": 35.525925,
        "longitude": 139.405361,
        "address": "緑区大字三室1946番5",
        "type": "施設"
    },
    {
        "name": "美園支所",
        "latitude": 35.8895824,
        "longitude": 139.7178632,
        "address": "緑区大字大門1973番1",
        "type": "施設"
    },
    {
        "name": "東岩槻支所",
        "latitude": 35.96204,
        "longitude": 139.716358,
        "address": "岩槻区東岩槻６丁目6番",
        "type": "施設"
    },
    {
        "name": "浦和駅市民の窓口",
        "latitude": 35.858932,
        "longitude": 139.656748,
        "address": "浦和区高砂１丁目16番20",
        "type": "施設"
    },
    {
        "name": "南浦和駅市民の窓口",
        "latitude": 35.846896,
        "longitude": 139.669385,
        "address": "南区南浦和２丁目37番1",
        "type": "施設"
    },
    {
        "name": "山崎市民の窓口",
        "latitude": 35.889809,
        "longitude": 139.667602,
        "address": "緑区大字三室223番8",
        "type": "施設"
    },
    {
        "name": "西浦和駅市民の窓口",
        "latitude": 35.503768,
        "longitude": 139.373867,
        "address": "桜区田島５丁目9番15",
        "type": "施設"
    },
    {
        "name": "北浦和駅市民の窓口",
        "latitude": 35.872523,
        "longitude": 139.645957,
        "address": "浦和区北浦和３丁目3番1",
        "type": "施設"
    },
    {
        "name": "与野駅市民の窓口",
        "latitude": 35.885776,
        "longitude": 139.6398,
        "address": "浦和区上木崎２丁目2番2",
        "type": "施設"
    },
    {
        "name": "東浦和駅市民の窓口",
        "latitude": 35.8662513,
        "longitude": 139.7034435,
        "address": "緑区東浦和４丁目1番16",
        "type": "施設"
    },
    {
        "name": "原山市民の窓口",
        "latitude": 35.8720783,
        "longitude": 139.6683354,
        "address": "緑区原山２丁目33番7",
        "type": "施設"
    },
    {
        "name": "府内市民の窓口",
        "latitude": 35.94387,
        "longitude": 139.71082,
        "address": "岩槻区府内１丁目8番1",
        "type": "施設"
    },
    {
        "name": "岩槻まちづくり事務所",
        "latitude": 35.949908,
        "longitude": 139.6943969,
        "address": "岩槻区本町３丁目2番5",
        "type": "施設"
    },
    {
        "name": "岩槻区役所第4別館",
        "latitude": 35.948003,
        "longitude": 139.69147,
        "address": "岩槻区本町１丁目8番21",
        "type": "施設"
    },
    {
        "name": "旧職員会館",
        "latitude": 35.917844,
        "longitude": 139.637823,
        "address": "大宮区堀の内町３丁目368番",
        "type": "施設"
    },
    {
        "name": "職員研修センター",
        "latitude": 35.934434,
        "longitude": 139.657434,
        "address": "見沼区堀崎町48番1",
        "type": "施設"
    },
    {
        "name": "防災センター庁舎・大宮消防署",
        "latitude": 35.907365,
        "longitude": 139.647494,
        "address": "大宮区天沼町１丁目893番",
        "type": "施設"
    },
    {
        "name": "消防局庁舎・浦和消防署",
        "latitude": 35.862001,
        "longitude": 139.646235,
        "address": "浦和区常盤６丁目1番28",
        "type": "施設"
    },
    {
        "name": "西消防署",
        "latitude": 35.929496,
        "longitude": 139.580702,
        "address": "西区大字清河寺447番1",
        "type": "施設"
    },
    {
        "name": "北消防署",
        "latitude": 35.947316,
        "longitude": 139.610908,
        "address": "北区宮原町４丁目66番14",
        "type": "施設"
    },
    {
        "name": "見沼消防署",
        "latitude": 35.956031,
        "longitude": 139.661367,
        "address": "見沼区春野２丁目6番1",
        "type": "施設"
    },
    {
        "name": "中央消防署",
        "latitude": 35.883273,
        "longitude": 139.626294,
        "address": "中央区下落合５丁目7番18",
        "type": "施設"
    },
    {
        "name": "桜消防署",
        "latitude": 35.8504,
        "longitude": 139.628923,
        "address": "桜区田島４丁目23番7",
        "type": "施設"
    },
    {
        "name": "南消防署",
        "latitude": 35.839765,
        "longitude": 139.662348,
        "address": "南区根岸３丁目10番7",
        "type": "施設"
    },
    {
        "name": "緑消防署",
        "latitude": 35.872103,
        "longitude": 139.684448,
        "address": "緑区大字中尾973番2",
        "type": "施設"
    },
    {
        "name": "岩槻消防署",
        "latitude": 35.94227,
        "longitude": 139.700983,
        "address": "岩槻区城南１丁目2番3",
        "type": "施設"
    },
    {
        "name": "西消防署西遊馬出張所",
        "latitude": 35.903573,
        "longitude": 139.575531,
        "address": "西区大字西遊馬307番1",
        "type": "施設"
    },
    {
        "name": "北消防署植竹出張所",
        "latitude": 35.929908,
        "longitude": 139.619968,
        "address": "北区植竹町１丁目820番1",
        "type": "施設"
    },
    {
        "name": "見沼消防署蓮沼出張所",
        "latitude": 35.92508,
        "longitude": 139.658074,
        "address": "見沼区大字蓮沼267番",
        "type": "施設"
    },
    {
        "name": "桜消防署西浦和出張所",
        "latitude": 35.83887,
        "longitude": 139.626751,
        "address": "桜区田島７丁目17番10",
        "type": "施設"
    },
    {
        "name": "桜消防署大久保出張所",
        "latitude": 35.86748,
        "longitude": 139.59692,
        "address": "桜区大字五関762番2",
        "type": "施設"
    },
    {
        "name": "浦和消防署木崎出張所",
        "latitude": 35.882193,
        "longitude": 139.653984,
        "address": "浦和区領家４丁目21番20",
        "type": "施設"
    },
    {
        "name": "浦和消防署日の出出張所",
        "latitude": 35.858727,
        "longitude": 139.661292,
        "address": "浦和区東岸町8番10",
        "type": "施設"
    },
    {
        "name": "南消防署東浦和出張所",
        "latitude": 35.855308,
        "longitude": 139.692759,
        "address": "南区大字大谷口5668番",
        "type": "施設"
    },
    {
        "name": "緑消防署美園出張所",
        "latitude": 35.889116,
        "longitude": 139.716016,
        "address": "緑区大字玄蕃新田597番1",
        "type": "施設"
    },
    {
        "name": "岩槻消防署太田出張所",
        "latitude": 35.953222,
        "longitude": 139.704593,
        "address": "岩槻区太田１丁目2番11",
        "type": "施設"
    },
    {
        "name": "岩槻消防署上野出張所",
        "latitude": 35.973899,
        "longitude": 139.695904,
        "address": "岩槻区上野４丁目6番21",
        "type": "施設"
    },
    {
        "name": "岩槻消防署笹久保出張所",
        "latitude": 35.915599,
        "longitude": 139.715471,
        "address": "岩槻区大字笹久保1328番",
        "type": "施設"
    },
    {
        "name": "大宮消防署大成出張所",
        "latitude": 35.909928,
        "longitude": 139.615361,
        "address": "大宮区大成町１丁目226番",
        "type": "施設"
    },
    {
        "name": "大宮消防署氷川参道出張所",
        "latitude": 35.90146,
        "longitude": 139.63109,
        "address": "大宮区吉敷町１丁目136番1",
        "type": "施設"
    },
    {
        "name": "見沼消防署東大宮出張所",
        "latitude": 35.9495338,
        "longitude": 139.6373553,
        "address": "見沼区東大宮４丁目31番1",
        "type": "施設"
    }
]
